name,lat,lng,gradeName,pricePerLitre,address
"HPCL Bandra West",19.0600,72.8360,Power99,165.50,"Linking Road, Bandra West"
"IOCL Andheri East",19.1136,72.8697,XP100,161.20,"Sahar Road, Andheri East"
"BPCL Juhu",19.1012,72.8258,Speed97,115.30,"Juhu Tara Road"
"HPCL Worli Sea Face",18.9986,72.8174,Power99,165.50,"Worli Sea Face"
"IOCL Powai",19.1176,72.9060,XP100,160.00,"JVLR, Powai"
"BPCL Colaba",18.9154,72.8259,Speed97,114.90,"Colaba Causeway"
